[
  {
    "name": "ラーメン二郎 八王子野猿街道店2",
    "address": "東京都八王子市堀之内2-13-16",
    "lat": "35.629517",
    "lng": "139.401377"
  },
  {
    "name": "ラーメン二郎 ひばりヶ丘駅前店",
    "address": "東京都西東京市谷戸町3-27-24 ひばりヶ丘プラザ1F",
    "lat": "35.750037",
    "lng": "139.543703"
  },
  {
    "name": "ラーメン二郎 横浜関内店",
    "address": "神奈川県横浜市中区長者町6-94",
    "lat": "35.442182",
    "lng": "139.630704"
  },
  {
    "name": "ラーメン二郎 三田本店",
    "address": "東京都港区三田2-16-3",
    "lat": "35.648097",
    "lng": "139.741624"
  },
  {
    "name": "ラーメン二郎 神田神保町店",
    "address": "東京都千代田区神保町1-21-1",
    "lat": "35.695335",
    "lng": "139.760917"
  },
  {
    "name": "ラーメン二郎 湘南藤沢店",
    "address": "神奈川県藤沢市本町1丁目10-14",
    "lat": "35.342985",
    "lng": "139.482399"
  },
  {
    "name": "ラーメン二郎 環七一之江店",
    "address": "東京都江戸川区一之江8-3-4",
    "lat": "35.684114",
    "lng": "139.881962"
  },
  {
    "name": "ラーメン二郎 中山駅前店",
    "address": "神奈川県横浜市緑区台村町 309-1 土井ビル1F",
    "lat": "35.513116",
    "lng": "139.538604"
  },
  {
    "name": "ラーメン二郎 茨城守谷店",
    "address": "茨城県守谷市美園4-1-5 美園ビル1F",
    "lat": "35.924008",
    "lng": "140.000831"
  },
  {
    "name": "ラーメン二郎 目黒店",
    "address": "東京都目黒区目黒3-7-2",
    "lat": "35.629341",
    "lng": "139.710449"
  },
  {
    "name": "ラーメン二郎 松戸駅前店",
    "address": "千葉県松戸市本町17-9",
    "lat": "35.785986",
    "lng": "139.899357"
  },
  {
    "name": "ラーメン二郎 相模大野店",
    "address": "神奈川県相模原市南区相模大野6-14-9 MKプラザⅡ 103号",
    "lat": "35.529992",
    "lng": "139.432944"
  },
  {
    "name": "ラーメン二郎 新小金井街道店",
    "address": "東京都小金井市貫井北町3-5-7",
    "lat": "35.708479",
    "lng": "139.496230"
  },
  {
    "name": "ラーメン二郎 西台駅前店",
    "address": "東京都板橋区蓮根3-8-14",
    "lat": "35.785947",
    "lng": "139.674651"
  },
  {
    "name": "ラーメン二郎 栃木街道店",
    "address": "栃木県下都賀郡壬生町本丸2-15-67",
    "lat": "36.422933",
    "lng": "139.794918"
  },
  {
    "name": "ラーメン二郎 環七新新代田店",
    "address": "東京都世田谷区代田5-29-5",
    "lat": "35.662017",
    "lng": "139.660427"
  },
  {
    "name": "ラーメン二郎 品川店",
    "address": "東京都品川区北品川1-18-5",
    "lat": "35.623946",
    "lng": "139.743006"
  },
  {
    "name": "ラーメン二郎 仙台店",
    "address": "宮城県仙台市青葉区立町2-8",
    "lat": "38.261721",
    "lng": "140.866142"
  },
  {
    "name": "ラーメン二郎 小岩店",
    "address": "東京都江戸川区西小岩3-31-13",
    "lat": "35.734997",
    "lng": "139.880021"
  },
  {
    "name": "ラーメン二郎 千住大橋駅前店",
    "address": "東京都足立区千住橋戸町 10-8",
    "lat": "35.742614",
    "lng": "139.797056"
  },
  {
    "name": "ラーメン二郎 亀戸店",
    "address": "東京都江東区亀戸4-35-17 エレガントコーポラス101号",
    "lat": "35.701986",
    "lng": "139.826678"
  },
  {
    "name": "ラーメン二郎 京成大久保店",
    "address": "千葉県船橋市三山2-1-11",
    "lat": "35.691546",
    "lng": "140.049636"
  },
  {
    "name": "ラーメン二郎 桜台駅前店",
    "address": "東京都練馬区桜台1-5-1",
    "lat": "35.738841",
    "lng": "139.661881"
  },
  {
    "name": "ラーメン二郎 荻窪店",
    "address": "東京都杉並区荻窪4-33-1",
    "lat": "35.703628",
    "lng": "139.626310"
  },
  {
    "name": "ラーメン二郎 京急川崎店",
    "address": "神奈川県川崎市川崎区本町2-10-1",
    "lat": "35.534937",
    "lng": "139.705306"
  },
  {
    "name": "ラーメン二郎 川越店",
    "address": "埼玉県川越市旭町1-4-15",
    "lat": "35.902752",
    "lng": "139.476600"
  },
  {
    "name": "ラーメン二郎 上野毛店",
    "address": "東京都世田谷区上野毛1-26-16",
    "lat": "35.612456",
    "lng": "139.638988"
  },
  {
    "name": "ラーメン二郎 札幌店",
    "address": "北海道札幌市北区北六条西8-8-11",
    "lat": "43.067418",
    "lng": "141.343821"
  },
  {
    "name": "ラーメン二郎 新潟店",
    "address": "新潟県新潟市中央区万代5-2-8",
    "lat": "37.917282",
    "lng": "139.060105"
  },
  {
    "name": "ラーメン二郎 新橋店",
    "address": "東京都港区西新橋2-33-4",
    "lat": "35.665652",
    "lng": "139.750582"
  },
  {
    "name": "ラーメン二郎 府中店",
    "address": "東京都府中市宮西町1-15-5 関野屋ビル1F",
    "lat": "35.672067",
    "lng": "139.477294"
  },
  {
    "name": "ラーメン二郎 会津若松駅前店",
    "address": "福島県会津若松市駅前町6-31",
    "lat": "37.506666",
    "lng": "139.931431"
  },
  {
    "name": "ラーメン二郎 池袋東口店",
    "address": "東京都豊島区南池袋2-27-17",
    "lat": "35.728308",
    "lng": "139.713844"
  },
  {
    "name": "ラーメン二郎 仙川店",
    "address": "東京都調布市仙川町1-10-17",
    "lat": "35.661815",
    "lng": "139.583902"
  },
  {
    "name": "ラーメン二郎 新宿小滝橋通り店",
    "address": "東京都新宿区西新宿7-5-5",
    "lat": "35.696485",
    "lng": "139.698469"
  },
  {
    "name": "ラーメン二郎 京都店",
    "address": "京都府京都市左京区一乗寺里ノ前町4番",
    "lat": "35.043954",
    "lng": "135.787521"
  },
  {
    "name": "ラーメン二郎 JR西口蒲田店",
    "address": "東京都大田区西蒲田7-6-9 高橋ビル1F",
    "lat": "35.563752",
    "lng": "139.714596"
  },
  {
    "name": "ラーメン二郎 赤羽店",
    "address": "東京都北区赤羽 1-22-3",
    "lat": "35.779855",
    "lng": "139.720825"
  },
  {
    "name": "ラーメン二郎 大宮店",
    "address": "埼玉県さいたま市大宮区下町1-25",
    "lat": "35.903475",
    "lng": "139.626295"
  },
  {
    "name": "ラーメン二郎 立川店",
    "address": "東京都立川市柴崎町2-10-1",
    "lat": "35.696551",
    "lng": "139.409538"
  },
  {
    "name": "ラーメン二郎 環七新代田店",
    "address": "東京都世田谷区代田5-29-5",
    "lat": "35.662008",
    "lng": "139.660437"
  },
  {
    "name": "ラーメン二郎 鶴見店",
    "address": "神奈川県横浜市鶴見区岸谷2丁目13-7",
    "lat": "35.497121",
    "lng": "139.661283"
  },
  {
    "name": "ラーメン二郎 高田馬場店",
    "address": "東京都豊島区高田3-17-8",
    "lat": "35.715523",
    "lng": "139.706612"
  },
  {
    "name": "ラーメン二郎 武蔵小杉店",
    "address": "神奈川県川崎市中原区上丸子山王町1-1401",
    "lat": "35.577384",
    "lng": "139.665830"
  },
  {
    "name": "ラーメン二郎 めじろ台法政大学前店",
    "address": "東京都八王子市椚田町513-9",
    "lat": "35.638978",
    "lng": "139.312226"
  },
  {
    "name": "ラーメン二郎 歌舞伎町店",
    "address": "東京都新宿区歌舞伎町2-37-5 日新ビル1階",
    "lat": "35.696147",
    "lng": "139.701908"
  }
]
